{"version": 0.6, "generator": "Overpass API 0.7.62.4 2390de5a", "osm3s": {"timestamp_osm_base": "2024-12-15T03:53:15Z", "copyright": "The data included in this document is from www.openstreetmap.org. The data is made available under ODbL."}, "elements": [{"type": "node", "id": 1244162687, "lat": 51.536415, "lon": -0.1923344}, {"type": "node", "id": 1244162698, "lat": 51.5363273, "lon": -0.1923776}, {"type": "node", "id": 1244162702, "lat": 51.5362666, "lon": -0.19209}, {"type": "node", "id": 1244162740, "lat": 51.5363319, "lon": -0.1923943}, {"type": "node", "id": 1244162743, "lat": 51.5363775, "lon": -0.1921997}, {"type": "node", "id": 1244162776, "lat": 51.5362944, "lon": -0.1922595}, {"type": "node", "id": 1244162781, "lat": 51.5362536, "lon": -0.1921075}, {"type": "way", "id": 108429752, "nodes": [1244162740, 1244162698, 1244162776, 1244162743, 1244162687, 1244162740], "tags": {"addr:city": "London", "addr:housenumber": "10", "addr:postcode": "NW6 5BA", "addr:street": "Cambridge Avenue", "building": "yes", "disused:amenity": "veterinary", "old_name": "Kilburn (The Animals War Memorial) Clinic", "wikidata": "Q27085993"}}, {"type": "way", "id": 108429761, "nodes": [1244162743, 1244162702, 1244162781, 1244162776, 1244162743], "tags": {"building": "yes"}}]}